{
  "Blood Banks" : [
    {
      "name" : "AFCT",
      "A+" : 12,
      "A-" : 2,
      "AB+" : 16,
      "AB-" : 19,
      "B+" : 31,
      "B-" : 17,
      "Lat" : 28.586783,
      "Lon" : 77.117888,
      "O+" : 9,
      "O-" : 2,
      "Phone" : 25666145
    },
     {"name" : "AIIMS",
      "A+" : 12,
      "A-" : 2,
      "AB+" : 10,
      "AB-" : 10,
      "B+" : 31,
      "B-" : 11,
      "Lat" : 28.567394,
      "Lon" : 77.210197,
      "O+" : 2,
      "O-" : 11,
      "Phone" : "9719097190"
    },
    { "name" : "Blood Bank Hindu Rao Hospital",
      "A+" : 11,
      "A-" : 12,
      "AB+" : 32,
      "AB-" : 3,
      "B+" : 31,
      "B-" : 21,
      "Lat" : 28.675887,
      "Lon" : 77.212042,
      "O+" : 32,
      "O-" : 12,
      "Phone" : 23919476
    },
    { "name" : "Blood Bank SJH",
      "A+" : 12,
      "A-" : 11,
      "AB+" : 21,
      "AB-" : 21,
      "B+" : 31,
      "B-" : 11,
      "Lat" : 28.5668,
      "Lon" : 77.20648,
      "O+" : 3,
      "O-" : 1,
      "Phone" : 26168470
    },
    { "name" : "BloodConnect",
      "A+" : 2,
      "A-" : 1,
      "AB+" : 12,
      "AB-" : 2,
      "B+" : 21,
      "B-" : 2,
      "Lat" : 28.572767,
      "Lon" : 77.245582,
      "O+" : 3,
      "O-" : 1,
      "Phone" : "8882982982"
    },
    { "name" : "Central Polyclinic Blood Bank",
      "A+" : 10,
      "A-" : 9,
      "AB+" : 21,
      "AB-" : 1,
      "B+" : 21,
      "B-" : 2,
      "Lat" : 28.644778,
      "Lon" : 77.297808,
      "O+" : 12,
      "O-" : 3,
      "Phone" : 22526347
    },
    { "name" : "Dr RML Hospital",
      "A+" : 12,
      "A-" : 11,
      "AB+" : 23,
      "AB-" : 21,
      "B+" : 32,
      "B-" : 21,
      "Lat" : 28.626561,
      "Lon" : 77.200712,
      "O+" : 32,
      "O-" : 11,
      "Phone" : 23365581
    },
    { "name" : "Gk Medical Centre",
      "A+" : 11,
      "A-" : 21,
      "AB+" : 23,
      "AB-" : 2,
      "B+" : 23,
      "B-" : 11,
      "Lat" : 28.535479,
      "Lon" : 77.241946,
      "O+" : 12,
      "O-" : 1,
      "Phone" : 26413046
    },
    { "name" : "Kalpana Charitable Trust",
      "A+" : 11,
      "A-" : 2,
      "AB+" : 21,
      "AB-" : 12,
      "B+" : 31,
      "B-" : 11,
      "Lat" : 28.710353,
      "Lon" : 77.220293,
      "O+" : 3,
      "O-" : 2,
      "Phone" : 9582786317
    },
    { "name" : "Kalra Hospital",
      "A+" : 12,
      "A-" : 11,
      "AB+" : 11,
      "AB-" : 19,
      "B+" : 21,
      "B-" : 21,
      "Lat" : 28.655368,
      "Lon" : 77.138596,
      "O+" : 19,
      "O-" : 17,
      "Phone" : 45005600
    },
    { "name" : "LNJP Hospital",
      "A+" : 21,
      "A-" : 21,
      "AB+" : 12,
      "AB-" : 2,
      "B+" : 32,
      "B-" : 3,
      "Lat" : 28.639553,
      "Lon" : 77.236764,
      "O+" : 12,
      "O-" : 3,
      "Phone" : 23233809
    },
    { "name" : "Lions Blood Bank",
      "A+" : 20,
      "A-" : 13,
      "AB+" : 12,
      "AB-" : 23,
      "B+" : 30,
      "B-" : 10,
      "Lat" : 28.704119,
      "Lon" : 77.162411,
      "O+" : 22,
      "O-" : 12,
      "Phone" : 9717897500
    },
    { "name" : "Metro Hospital",
      "A+" : 12,
      "A-" : 2,
      "AB+" : 10,
      "AB-" : 28,
      "B+" : 32,
      "B-" : 1,
      "Lat" : 28.597623,
      "Lon" : 77.338231,
      "O+" : 10,
      "O-" : 11,
      "Phone" : "01294277777"
    },
    { "name" : "Noida Charitable Blood Bank",
      "A+" : 1,
      "A-" : 2,
      "AB+" : 3,
      "AB-" : 1,
      "B+" : 12,
      "B-" : 1,
      "Lat" : 28.59916,
      "Lon" : 77.345187,
      "O+" : 10,
      "O-" : 2,
      "Phone" : 7042840641
    },
    { "name" : "Paras Hospital",
      "A+" : 12,
      "A-" : 11,
      "AB+" : 11,
      "AB-" : 21,
      "B+" : 31,
      "B-" : 11,
      "Lat" : 28.451228,
      "Lon" : 77.087726,
      "O+" : 1,
      "O-" : 21,
      "Phone" : 9560409965
    },
    { "name" : "Pitampura Blood Bank",
      "A+" : 11,
      "A-" : 12,
      "AB+" : 23,
      "AB-" : 3,
      "B+" : 30,
      "B-" : 11,
      "Lat" : 28.69933,
      "Lon" : 77.123549,
      "O+" : 29,
      "O-" : 11,
      "Phone" : 65655155
    },
    { "name" : "Red Cross Hospital",
      "A+" : 12,
      "A-" : 11,
      "AB+" : 18,
      "AB-" : 17,
      "B+" : 31,
      "B-" : 21,
      "Lat" : 28.678099,
      "Lon" : 77.322626,
      "O+" : 11,
      "O-" : 19,
      "Phone" : 22118752
    },
    { "name" : "Rotatory Blood Bank",
      "A+" : 12,
      "A-" : 11,
      "AB+" : 23,
      "AB-" : 4,
      "B+" : 29,
      "B-" : 21,
      "Lat" : 28.513568,
      "Lon" : 77.242581,
      "O+" : 19,
      "O-" : 11,
      "Phone" : 29054068
    },
    { "name" : "SGRH Hospital",
      "A+" : 7,
      "A-" : 2,
      "AB+" : 23,
      "AB-" : 1,
      "B+" : 38,
      "B-" : 3,
      "Lat" : 28.638237,
      "Lon" : 77.189494,
      "O+" : 13,
      "O-" : 2,
      "Phone" : 25750000
    },
    { "name" : "White Cross Blood Bank",
      "A+" : 11,
      "A-" : 21,
      "AB+" : 3,
      "AB-" : 4,
      "B+" : 43,
      "B-" : 11,
      "Lat" : 28.560772,
      "Lon" : 77.253658,
      "O+" : 32,
      "O-" : 1,
      "Phone" : 26831063
    }
  ]
}
